{"version": 0.6, "generator": "Overpass API 0.7.61.5 4133829e", "osm3s": {"timestamp_osm_base": "2023-12-28T17:47:06Z", "copyright": "The data included in this document is from www.openstreetmap.org. The data is made available under ODbL."}, "elements": [{"type": "node", "id": 256241985, "lat": -34.626968, "lon": -58.426404, "tags": {"name": "Avenida La Plata", "network": "Subte de Buenos Aires", "operator": "Emova Movilidad S.A.", "public_transport": "station", "railway": "station", "railway:position": "8.1", "start_date": "1966-04-24", "station": "subway", "subway": "yes", "wheelchair": "no", "wikidata": "Q3297028", "wikipedia": "es:Avenida La Plata (Subte de Buenos Aires)"}}, {"type": "node", "id": 256242013, "lat": -34.6254799, "lon": -58.4161163, "tags": {"name": "Boedo", "network": "Subte de Buenos Aires", "operator": "Emova Movilidad S.A.", "public_transport": "station", "railway": "station", "railway:position": "7", "start_date": "1960-07-09", "station": "subway", "subway": "yes", "wikidata": "Q3296722", "wikipedia": "es:Boedo (Subte de Buenos Aires)"}}, {"type": "node", "id": 256242125, "lat": -34.6273936, "lon": -58.3811172, "tags": {"name": "Constituci\u00f3n", "network": "Subte de Buenos Aires", "operator": "Emova Movilidad S.A.", "public_transport": "station", "railway": "station", "railway:position": "4.3", "start_date": "1934-11-09", "station": "subway", "subway": "yes", "wikidata": "Q2995069", "wikipedia": "es:Constituci\u00f3n (Subte de Buenos Aires)"}}, {"type": "node", "id": 256242143, "lat": -34.6222364, "lon": -58.3799317, "tags": {"name": "San Juan", "network": "Subte de Buenos Aires", "operator": "Emova Movilidad S.A.", "platforms": "2", "public_transport": "station", "railway": "station", "railway:position": "3.7", "start_date": "1934-11-09", "station": "subway", "wikidata": "Q3296610", "wikipedia": "es:San Juan (subte de Buenos Aires)"}}, {"type": "node", "id": 256242144, "lat": -34.6181099, "lon": -58.3814646, "tags": {"name": "Independencia (E)", "network": "Subte de Buenos Aires", "operator": "Emova Movilidad S.A.", "public_transport": "station", "railway": "station", "railway:position": "2.6", "start_date": "1966-04-24", "station": "subway", "subway": "yes", "train": "yes", "wheelchair": "no", "wikidata": "Q3296818"}}, {"type": "node", "id": 256242160, "lat": -34.6180915, "lon": -58.3801357, "tags": {"name": "Independencia (C)", "network": "Subte de Buenos Aires", "operator": "Emova Movilidad S.A.", "platforms": "2", "public_transport": "station", "railway": "station", "railway:position": "3.4", "start_date": "1934-11-09", "station": "subway", "subway": "yes", "train": "yes", "wikidata": "Q3150020", "wikipedia": "es:Independencia (l\u00ednea C del Subte de Buenos Aires)"}}, {"type": "node", "id": 256242251, "lat": -34.604769, "lon": -58.3795115, "tags": {"name": "Diagonal Norte", "network": "Subte de Buenos Aires", "old_name": "Carlos Pellegrini;Eva Per\u00f3n", "operator": "Emova Movilidad S.A.", "platforms": "2", "public_transport": "station", "railway": "station", "railway:position": "1.72", "start_date": "1934-11-09", "station": "subway", "subway": "yes", "wikidata": "Q5244669", "wikipedia": "es:Diagonal Norte (Subte de Buenos Aires)"}}, {"type": "node", "id": 256244943, "lat": -34.6017393, "lon": -58.3781082, "tags": {"name": "Lavalle", "network": "Subte de Buenos Aires", "operator": "Emova Movilidad S.A.", "platforms": "2", "public_transport": "station", "railway": "station", "railway:position": "1.2", "start_date": "1936-02-06", "station": "subway", "subway": "yes", "wikidata": "Q5244845"}}, {"type": "node", "id": 310290319, "lat": -34.5909715, "lon": -58.3742248}, {"type": "node", "id": 310290322, "lat": -34.5920291, "lon": -58.3750777}, {"type": "node", "id": 310353386, "lat": -34.6089745, "lon": -58.3806319, "tags": {"name": "Avenida de Mayo", "network": "Subte de Buenos Aires", "operator": "Emova Movilidad S.A.", "platforms": "2", "public_transport": "station", "railway": "station", "railway:position": "2.2", "start_date": "1934-11-09", "station": "subway", "subway": "yes", "wheelchair": "no", "wikidata": "Q3296371", "wikipedia": "es:Avenida de Mayo (Subte de Buenos Aires)"}}, {"type": "node", "id": 1085915755, "lat": -34.596514, "lon": -58.3720955, "tags": {"name": "Catalinas", "network": "Subte de Buenos Aires", "operator": "Emova Movilidad S.A.", "public_transport": "station", "railway": "station", "railway:position": "0.7", "start_date": "2019-06-03", "station": "subway", "subway": "yes", "wikidata": "Q3296762", "wikipedia": "es:Catalinas (subte de Buenos Aires)"}}, {"type": "node", "id": 1085915826, "lat": -34.5921903, "lon": -58.3761678, "tags": {"name": "Retiro (E)", "network": "Subte de Buenos Aires", "operator": "Emova Movilidad S.A.", "public_transport": "station", "railway": "station", "railway:position": "0", "start_date": "2019-06-03", "station": "subway", "subway": "yes", "wikidata": "Q8882794", "wikipedia": "es:Retiro (l\u00ednea E del subte de Buenos Aires)"}}, {"type": "node", "id": 1610665341, "lat": -34.5910118, "lon": -58.3749945}, {"type": "node", "id": 1610665344, "lat": -34.5906945, "lon": -58.3747301}, {"type": "node", "id": 1610665346, "lat": -34.5917554, "lon": -58.3755888}, {"type": "node", "id": 1628545040, "lat": -34.5909115, "lon": -58.3743358}, {"type": "node", "id": 1637245196, "lat": -34.5914773, "lon": -58.3746269}, {"type": "node", "id": 2726629683, "lat": -34.6536024, "lon": -58.3789065, "tags": {"name": "Hip\u00f3lito Yrigoyen", "network": "Roca", "operator": "Trenes Argentinos", "public_transport": "station", "railway": "station", "short_name": "H. Yrigoyen", "train": "yes", "wikidata": "Q5842678", "wikipedia": "es:Estaci\u00f3n Hip\u00f3lito Yrigoyen"}}, {"type": "node", "id": 3051299600, "lat": -34.5913706, "lon": -58.3752937}, {"type": "node", "id": 3181753732, "lat": -34.5919804, "lon": -58.3751662}, {"type": "node", "id": 3238757284, "lat": -34.5430716, "lon": -58.4477827, "tags": {"name": "Ciudad Universitaria", "network": "Belgrano Norte", "operator": "Ferrov\u00edas", "public_transport": "station", "railway": "station", "start_date": "2015-09-02", "wheelchair": "yes", "wikidata": "Q18603116", "wikipedia": "es:Estaci\u00f3n Ciudad Universitaria (Belgrano Norte)"}}, {"type": "node", "id": 3447885516, "lat": -34.5950235, "lon": -58.3778987, "tags": {"name": "General San Mart\u00edn", "network": "Subte de Buenos Aires", "operator": "Emova Movilidad S.A.", "platforms": "2", "public_transport": "station", "railway": "station", "railway:position": "0.4", "start_date": "1937-08-17", "station": "subway", "subway": "yes", "wikidata": "Q3296358", "wikipedia": "es:General San Mart\u00edn (Subte de Buenos Aires)"}}, {"type": "node", "id": 3448079324, "lat": -34.5484856, "lon": -58.4627415, "tags": {"name": "N\u00fa\u00f1ez", "network": "Mitre", "network:wikidata": "Q3239158", "operator": "Trenes Argentinos Operadora Ferroviaria", "operator:wikidata": "Q6116255", "public_transport": "station", "railway": "station", "railway:position": "9.6", "start_date": "1873-04-27", "train": "yes", "wikidata": "Q5843952", "wikipedia": "es:Estaci\u00f3n N\u00fa\u00f1ez"}}, {"type": "node", "id": 3448079330, "lat": -34.5366131, "lon": -58.4680033, "tags": {"internet_access": "wlan", "internet_access:fee": "no", "name": "Rivadavia", "network": "Mitre", "operator": "Trenes Argentinos", "public_transport": "station", "railway": "station", "train": "yes", "wikidata": "Q5844527", "wikipedia": "es:Estaci\u00f3n Rivadavia"}}, {"type": "node", "id": 3449220575, "lat": -34.6181052, "lon": -58.4359552, "tags": {"name": "Acoyte", "network": "Subte de Buenos Aires", "old_name": "Jos\u00e9 Mar\u00eda Moreno", "operator": "Emova Movilidad S.A.", "platforms": "2", "public_transport": "station", "railway": "station", "railway:position": "6.2", "start_date": "1914-07-14", "station": "subway", "subway": "yes", "wheelchair": "yes", "wikidata": "Q3351989", "wikipedia": "es:Acoyte (subte de Buenos Aires)"}}, {"type": "node", "id": 3449220576, "lat": -34.6264544, "lon": -58.4561066, "tags": {"name": "Carabobo", "network": "Subte de Buenos Aires", "operator": "Emova Movilidad S.A.", "platforms": "2", "public_transport": "station", "railway": "station", "railway:position": "8.2", "start_date": "2008-12-22", "station": "subway", "subway": "yes", "wheelchair": "yes", "wikidata": "Q937473", "wikipedia": "es:Carabobo (Subte de Buenos Aires)"}}, {"type": "node", "id": 3449220577, "lat": -34.6117062, "lon": -58.4215177, "tags": {"name": "Castro Barros", "network": "Subte de Buenos Aires", "operator": "Emova Movilidad S.A.", "platforms": "2", "public_transport": "station", "railway": "station", "railway:position": "4.7", "start_date": "1914-04-01", "station": "subway", "subway": "yes", "wikidata": "Q3352006", "wikipedia": "es:Castro Barros (subte de Buenos Aires)"}}, {"type": "node", "id": 3449220578, "lat": -34.6108281, "lon": -58.4155501, "tags": {"name": "Loria", "network": "Subte de Buenos Aires", "operator": "Emova Movilidad S.A.", "platforms": "2", "public_transport": "station", "railway": "station", "railway:position": "4.1", "start_date": "1914-04-01", "station": "subway", "subway": "yes", "wikidata": "Q2843844", "wikipedia": "es:Loria (Subte de Buenos Aires)"}}, {"type": "node", "id": 3449220579, "lat": -34.6097461, "lon": -58.4063571, "tags": {"name": "Plaza Miserere", "network": "Subte de Buenos Aires;Sarmiento", "official_name": "Plaza de Miserere", "old_name": "Plaza Once", "operator": "Metrov\u00edas;Trenes Argentinos", "public_transport": "station", "railway": "station", "railway:position": "3.2", "start_date": "1913-12-01", "station": "subway", "subway": "yes", "train": "yes", "wikidata": "Q3174567", "wikipedia": "es:Estaci\u00f3n Plaza de Miserere"}}, {"type": "node", "id": 3449220580, "lat": -34.6205897, "lon": -58.4413922, "tags": {"name": "Primera Junta", "network": "Subte de Buenos Aires", "old_name": "Caballito", "operator": "Emova Movilidad S.A.", "public_transport": "station", "railway": "station", "railway:position": "6.7", "start_date": "1914-07-14", "station": "subway", "subway": "yes", "wheelchair": "limited", "wikidata": "Q3351980", "wikipedia": "es:Primera Junta (subte de Buenos Aires)"}}, {"type": "node", "id": 3449220581, "lat": -34.623559, "lon": -58.448639, "tags": {"name": "Puan", "network": "Subte de Buenos Aires", "operator": "Emova Movilidad S.A.", "platforms": "2", "public_transport": "station", "railway": "station", "railway:position": "7.5", "start_date": "2008-12-23", "station": "subway", "subway": "yes", "wheelchair": "yes", "wikidata": "Q3294847"}}, {"type": "node", "id": 3449220582, "lat": -34.6152413, "lon": -58.429492, "tags": {"name": "R\u00edo de Janeiro", "network": "Subte de Buenos Aires", "operator": "Emova Movilidad S.A.", "platforms": "2", "public_transport": "station", "railway": "station", "railway:position": "5.6", "start_date": "1914-04-01", "station": "subway", "subway": "yes", "wikidata": "Q3352487", "wikipedia": "es:R\u00edo de Janeiro (Subte de Buenos Aires)"}}, {"type": "node", "id": 3449220583, "lat": -34.6290748, "lon": -58.4634771, "tags": {"name": "San Jos\u00e9 de Flores", "network": "Subte de Buenos Aires", "old_name": "Flores", "operator": "Emova Movilidad S.A.", "platforms": "2", "public_transport": "station", "railway": "station", "railway:position": "9", "start_date": "2013-09-27", "station": "subway", "subway": "yes", "wikidata": "Q3295262", "wikipedia": "es:San Jos\u00e9 de Flores (Subte de Buenos Aires)"}}, {"type": "node", "id": 3449220584, "lat": -34.630944, "lon": -58.4704936, "tags": {"name": "San Pedrito", "network": "Subte de Buenos Aires", "old_name": "Nazca", "operator": "Emova Movilidad S.A.", "public_transport": "station", "railway": "station", "railway:position": "9.7", "start_date": "2013-09-27", "station": "subway", "subway": "yes", "wikidata": "Q3295246", "wikipedia": "es:San Pedrito (Subte de Buenos Aires)"}}, {"type": "node", "id": 3449235011, "lat": -34.6092208, "lon": -58.3925644, "tags": {"name": "Congreso", "network": "Subte de Buenos Aires", "operator": "Emova Movilidad S.A.", "platforms": "2", "public_transport": "station", "railway": "station", "railway:position": "2", "start_date": "1913-12-01", "station": "subway", "subway": "yes", "wikidata": "Q3352074", "wikipedia": "es:Congreso (subte de Buenos Aires)"}}, {"type": "node", "id": 3449235012, "lat": -34.6091227, "lon": -58.3826462, "tags": {"name": "Lima", "network": "Subte de Buenos Aires", "operator": "Emova Movilidad S.A.", "platforms": "2", "public_transport": "station", "railway": "station", "railway:position": "1", "start_date": "1913-12-01", "station": "subway", "subway": "yes", "wikidata": "Q3352964"}}, {"type": "node", "id": 3449235013, "lat": -34.6085776, "lon": -58.3745001, "tags": {"name": "Per\u00fa", "network": "Subte de Buenos Aires", "operator": "Emova Movilidad S.A.", "platforms": "2", "public_transport": "station", "railway": "station", "railway:position": "0.3", "start_date": "1913-12-01", "station": "subway", "subway": "yes", "wikidata": "Q3352537", "wikipedia": "es:Per\u00fa (Subte de Buenos Aires)"}}, {"type": "node", "id": 3449235014, "lat": -34.6088397, "lon": -58.3785726, "tags": {"name": "Piedras", "network": "Subte de Buenos Aires", "operator": "Emova Movilidad S.A.", "platforms": "2", "public_transport": "station", "railway": "station", "railway:position": "0.7", "start_date": "1913-12-01", "station": "subway", "subway": "yes", "wikidata": "Q3352542", "wikipedia": "es:Piedras (subte de Buenos Aires)"}}, {"type": "node", "id": 3449235015, "lat": -34.608798, "lon": -58.3711432, "tags": {"name": "Plaza de Mayo", "network": "Subte de Buenos Aires", "operator": "Emova Movilidad S.A.", "public_transport": "station", "railway": "station", "railway:position": "0", "start_date": "1913-12-01", "station": "subway", "subway": "yes", "wikidata": "Q3232735", "wikipedia": "es:Plaza de Mayo (Subte de Buenos Aires)"}}, {"type": "node", "id": 3449235016, "lat": -34.6094069, "lon": -58.3867508, "tags": {"name": "S\u00e1enz Pe\u00f1a", "network": "Subte de Buenos Aires", "operator": "Emova Movilidad S.A.", "platforms": "2", "public_transport": "station", "railway": "station", "railway:position": "1.4", "start_date": "1913-12-01", "station": "subway", "wikidata": "Q3352550", "wikipedia": "es:S\u00e1enz Pe\u00f1a (subte de Buenos Aires)"}}, {"type": "node", "id": 3449341470, "lat": -34.6096461, "lon": -58.3985172, "tags": {"name": "Pasco", "network": "Subte de Buenos Aires", "operator": "Emova Movilidad S.A.", "platforms": "1", "public_transport": "station", "railway": "station", "railway:position": "2.5", "start_date": "1913-12-01", "station": "subway", "subway": "yes", "train": "yes", "wikidata": "Q3352082", "wikipedia": "es:Pasco (subte de Buenos Aires)"}}, {"type": "node", "id": 3449341473, "lat": -34.6098814, "lon": -58.4008551, "tags": {"name": "Alberti", "network": "Subte de Buenos Aires", "operator": "Emova Movilidad S.A.", "platforms": "1", "public_transport": "station", "railway": "station", "railway:position": "2.7", "start_date": "1913-12-01", "station": "subway", "subway": "yes", "train": "yes", "wikidata": "Q3352291"}}, {"type": "node", "id": 3449432056, "lat": -34.5678069, "lon": -58.4624556, "tags": {"name": "Belgrano R", "network": "Mitre", "network:wikidata": "Q3239158", "operator": "Trenes Argentinos Operadora Ferroviaria", "operator:wikidata": "Q6116255", "public_transport": "station", "railway": "station", "start_date": "1876-04-22", "train": "yes", "wikidata": "Q5841092", "wikipedia": "es:Estaci\u00f3n Belgrano R"}}, {"type": "node", "id": 3449432058, "lat": -34.5730241, "lon": -58.4481908, "tags": {"name": "Colegiales", "network": "Mitre", "operator": "Trenes Argentinos", "public_transport": "station", "railway": "station", "train": "yes", "wikidata": "Q5841644", "wikipedia": "es:Estaci\u00f3n Colegiales"}}, {"type": "node", "id": 3449432059, "lat": -34.5684608, "lon": -58.4791248, "tags": {"name": "Doctor Luis Mar\u00eda Drago", "network": "Mitre", "network:wikidata": "Q3239158", "operator": "Trenes Argentinos Operadora Ferroviaria", "operator:wikidata": "Q6116255", "public_transport": "station", "railway": "station", "railway:position": "12", "short_name": "Drago", "start_date": "1933-11-10", "train": "yes", "wheelchair": "yes", "wikidata": "Q5841983", "wikipedia": "es:Estaci\u00f3n Dr. Luis Mar\u00eda Drago"}}, {"type": "node", "id": 3449432060, "lat": -34.5747329, "lon": -58.4878489, "tags": {"name": "General Urquiza", "network": "Mitre", "old_name": "Las Catalinas", "operator": "Trenes Argentinos", "platforms": "2", "public_transport": "station", "railway": "station", "railway:position": "12.2", "start_date": "1889-04-13", "train": "yes", "wheelchair": "yes", "wikidata": "Q5842482", "wikipedia": "es:Estaci\u00f3n General Urquiza"}}, {"type": "node", "id": 3449432063, "lat": -34.5755183, "lon": -58.4347146, "tags": {"name": "Ministro Carranza", "network": "Mitre", "network:wikidata": "Q3239158", "operator": "Trenes Argentinos Operadora Ferroviaria", "operator:wikidata": "Q6116255", "platforms": "2", "public_transport": "station", "railway": "station", "railway:position": "6.6", "short_name": "Carranza", "train": "yes", "wheelchair": "yes", "wikidata": "Q5843757", "wikipedia": "es:Estaci\u00f3n Ministro Carranza"}}, {"type": "node", "id": 3449432064, "lat": -34.5804868, "lon": -58.5017023, "tags": {"name": "General Juan Mart\u00edn de Pueyrred\u00f3n", "network": "Mitre", "operator": "Trenes Argentinos", "public_transport": "station", "railway": "station", "short_name": "Pueyrred\u00f3n", "train": "yes", "wikidata": "Q5842588", "wikipedia": "es:Estaci\u00f3n General Juan Mart\u00edn de Pueyrred\u00f3n"}}, {"type": "node", "id": 3450108105, "lat": -34.5653298, "lon": -58.4751219, "tags": {"name": "Coghlan", "public_transport": "station", "railway": "station", "train": "yes", "wikidata": "Q5841639"}}, {"type": "node", "id": 3450108106, "lat": -34.5544387, "lon": -58.4868008, "tags": {"name": "Luis Mar\u00eda Saavedra", "network": "Mitre", "operator": "Trenes Argentinos", "platforms": "2", "public_transport": "station", "railway": "station", "short_name": "Saavedra", "start_date": "1891-02-01", "train": "yes", "wikidata": "Q5844638", "wikipedia": "es:Estaci\u00f3n Luis Mar\u00eda Saavedra"}}, {"type": "node", "id": 3451041825, "lat": -34.5759571, "lon": -58.3990407, "tags": {"name": "Sald\u00edas", "network": "Belgrano", "operator": "Ferrov\u00edas", "platforms": "2", "public_transport": "station", "railway": "station", "railway:position": "3", "start_date": "1912", "train": "yes", "wikidata": "Q5844662", "wikipedia": "es:Estaci\u00f3n Sald\u00edas"}}, {"type": "node", "id": 3451071464, "lat": -34.5932867, "lon": -58.4480481, "tags": {"name": "Villa Crespo", "network": "San Mart\u00edn", "old_name": "Chacarita", "operator": "Trenes Argentinos", "public_transport": "station", "railway": "station", "railway:position": "8.8", "wikidata": "Q30898966", "wikipedia": "es:Estaci\u00f3n Villa Crespo"}}, {"type": "node", "id": 3451071465, "lat": -34.6026745, "lon": -58.5127834, "tags": {"name": "Devoto", "network": "GSM", "operator": "Trenes Argentinos", "public_transport": "station", "railway": "station", "start_date": "1888-11-13", "train": "yes", "wikidata": "Q5841915", "wikipedia": "es:Estaci\u00f3n Devoto"}}, {"type": "node", "id": 3451071469, "lat": -34.5969923, "lon": -58.4672266, "tags": {"name": "La Paternal", "network": "San Mart\u00edn", "operator": "Trenes Argentinos", "public_transport": "station", "railway": "station", "railway:position": "10.7", "start_date": "1887", "train": "yes", "wikidata": "Q5843129", "wikipedia": "es:Estaci\u00f3n La Paternal"}}, {"type": "node", "id": 3451071472, "lat": -34.5789369, "lon": -58.4268327, "tags": {"name": "Palermo", "network": "San Mart\u00edn", "old_name": "Palermo BAP", "operator": "Trenes Argentinos", "platforms": "2", "public_transport": "station", "railway": "station", "railway:position": "6.3", "start_date": "1888", "train": "yes", "wikidata": "Q5572984", "wikipedia": "es:Estaci\u00f3n Palermo"}}, {"type": "node", "id": 3451071478, "lat": -34.6014043, "lon": -58.4940744, "tags": {"name": "Villa del Parque", "network": "San Mart\u00edn", "operator": "Trenes Argentinos", "public_transport": "station", "railway": "station", "short_name": "V. del Parque", "start_date": "1907-04-19", "train": "yes", "wikidata": "Q5845468", "wikipedia": "es:Estaci\u00f3n Villa del Parque"}}, {"type": "node", "id": 3451129258, "lat": -34.5956019, "lon": -58.5105524, "tags": {"name": "Antonio Devoto", "network": "Urquiza", "operator": "Metrov\u00edas", "public_transport": "station", "railway": "station", "wikidata": "Q5840867", "wikipedia": "es:Estaci\u00f3n Antonio Devoto"}}, {"type": "node", "id": 3451129262, "lat": -34.5932142, "lon": -58.4946621, "tags": {"name": "Doctor Francisco Beir\u00f3", "network": "Urquiza", "operator": "Metrov\u00edas", "public_transport": "station", "railway": "station", "train": "yes", "wikidata": "Q5842316", "wikipedia": "es:Estaci\u00f3n Francisco Beir\u00f3"}}, {"type": "node", "id": 3451129264, "lat": -34.5944659, "lon": -58.5031175, "tags": {"name": "El Libertador", "public_transport": "station", "railway": "station", "train": "yes", "wikidata": "Q5842051", "wikipedia": "es:Estaci\u00f3n El Libertador"}}, {"type": "node", "id": 3451129268, "lat": -34.5900973, "lon": -58.4662985, "tags": {"name": "Jos\u00e9 Artigas", "network": "Urquiza", "old_name": "Paternal", "operator": "Metrov\u00edas", "public_transport": "station", "railway": "station", "short_name": "Artigas", "train": "yes", "wikidata": "Q5842876", "wikipedia": "es:Estaci\u00f3n Jos\u00e9 Artigas"}}, {"type": "node", "id": 3451129274, "lat": -34.5924767, "lon": -58.47628, "tags": {"name": "Pedro Arata", "network": "Urquiza", "operator": "Metrov\u00edas", "public_transport": "station", "railway": "station", "short_name": "Arata", "train": "yes", "wikidata": "Q5840890", "wikipedia": "es:Estaci\u00f3n Arata"}}, {"type": "node", "id": 3456010437, "lat": -34.6192396, "lon": -58.4436589, "tags": {"name": "Caballito", "network": "Sarmiento", "operator": "Trenes Argentinos", "platforms": "2", "public_transport": "station", "railway": "station", "railway:position": "3.8", "start_date": "1857-08-29", "wikidata": "Q5841246", "wikipedia": "es:Estaci\u00f3n Caballito"}}, {"type": "node", "id": 3456010438, "lat": -34.6278242, "lon": -58.4660648, "tags": {"name": "Flores", "network": "Sarmiento", "operator": "Trenes Argentinos", "platforms": "2", "public_transport": "station", "railway": "station", "railway:position": "5.9", "start_date": "1885", "wheelchair": "yes", "wikidata": "Q5842280", "wikipedia": "es:Estaci\u00f3n Flores (Sarmiento)"}}, {"type": "node", "id": 3456010439, "lat": -34.6323692, "lon": -58.4808865, "tags": {"name": "Floresta", "network": "Sarmiento", "old_name": "V\u00e9lez Sarsfield", "operator": "Trenes Argentinos", "platforms": "2", "public_transport": "station", "railway": "station", "railway:position": "7.3", "start_date": "1857", "wheelchair": "no", "wikidata": "Q5842283", "wikipedia": "es:Estaci\u00f3n Floresta (Buenos Aires)"}}, {"type": "node", "id": 3456010440, "lat": -34.6388693, "lon": -58.526338, "tags": {"internet_access": "wlan", "internet_access:fee": "no", "name": "Liniers", "network": "Sarmiento", "operator": "Trenes Argentinos", "public_transport": "station", "railway": "station", "railway:position": "11.6", "start_date": "1872-01-19", "wheelchair": "yes", "wikidata": "Q6554165", "wikipedia": "es:Estaci\u00f3n Liniers"}}, {"type": "node", "id": 3456010441, "lat": -34.6362602, "lon": -58.5020915, "tags": {"name": "Villa Luro", "network": "Sarmiento", "operator": "Trenes Argentinos", "platforms": "1", "public_transport": "station", "railway": "station", "railway:position": "9.3", "start_date": "1911-12-01", "wheelchair": "yes", "wikidata": "Q5845427", "wikipedia": "es:Estaci\u00f3n Villa Luro"}}, {"type": "node", "id": 3456150739, "lat": -34.6491205, "lon": -58.4166148, "tags": {"description": "Estaci\u00f3n cabecera temporaria", "name": "Doctor Antonio S\u00e1enz", "network": "Belgrano", "operator": "Trenes Argentinos", "public_transport": "station", "railway": "station", "short_name": "Doctor A. S\u00e1enz", "train": "yes", "wikidata": "Q5841976", "wikipedia": "es:Estaci\u00f3n S\u00e1enz (Belgrano Sur)"}}, {"type": "node", "id": 3456160727, "lat": -34.6622843, "lon": -58.4410592, "tags": {"name": "Villa Soldati", "network": "Belgrano", "operator": "Trenes Argentinos", "public_transport": "station", "railway": "station", "short_name": "V. Soldati", "train": "yes", "wikidata": "Q5845460", "wikipedia": "es:Estaci\u00f3n Villa Soldati"}}, {"type": "node", "id": 3458396952, "lat": -34.665686, "lon": -58.4491735, "tags": {"name": "Presidente Illia", "network": "Belgrano", "operator": "Trenes Argentinos", "public_transport": "station", "railway": "station", "short_name": "Presidente Illia", "train": "yes", "wikidata": "Q5844298", "wikipedia": "es:Estaci\u00f3n Presidente Illia"}}, {"type": "node", "id": 3458396961, "lat": -34.6770344, "lon": -58.4768027, "tags": {"addr:city": "Ciudad Aut\u00f3noma de Buenos Aires", "addr:housenumber": "5800", "addr:postcode": "1439", "addr:street": "Delf\u00edn Gallo", "internet_access": "wlan", "internet_access:ssid": "BA WiFi", "name": "Villa Lugano", "network": "Belgrano Sur", "operator": "Trenes Argentinos", "public_transport": "station", "railway": "station", "train": "yes", "wheelchair": "yes", "wikidata": "Q5845425", "wikipedia": "es:Estaci\u00f3n Lugano"}}, {"type": "node", "id": 3475502523, "lat": -34.588251, "lon": -58.4112129, "tags": {"name": "Bulnes", "network": "Subte de Buenos Aires", "operator": "Emova Movilidad S.A.", "platforms": "2", "public_transport": "station", "railway": "station", "railway:position": "4.3", "start_date": "1938-12-29", "station": "subway", "subway": "yes", "wikidata": "Q3296614", "wikipedia": "es:Bulnes (subte de Buenos Aires)"}}, {"type": "node", "id": 3475502524, "lat": -34.5996372, "lon": -58.3926756, "tags": {"name": "Callao - Raquel Liberman(D)", "network": "Subte de Buenos Aires", "operator": "Emova Movilidad S.A.", "platforms": "2", "public_transport": "station", "railway": "station", "railway:position": "2", "start_date": "1938-03-29", "station": "subway", "subway": "yes", "wheelchair": "no", "wikidata": "Q3296609", "wikipedia": "es:Callao (l\u00ednea D del Subte de Buenos Aires)"}}, {"type": "node", "id": 3475502526, "lat": -34.60757, "lon": -58.3742905, "tags": {"name": "Catedral", "network": "Subte de Buenos Aires", "operator": "Emova Movilidad S.A.", "platforms": "2", "public_transport": "station", "railway": "station", "railway:position": "Florida", "start_date": "1937-06-03", "station": "subway", "subway": "yes", "wikidata": "Q3296612", "wikipedia": "es:Catedral (Subte de Buenos Aires)"}}, {"type": "node", "id": 3475502530, "lat": -34.5997479, "lon": -58.3977392, "tags": {"name": "Facultad de Medicina", "network": "Subte de Buenos Aires", "operator": "Emova Movilidad S.A.", "platforms": "2", "public_transport": "station", "railway": "station", "railway:position": "2.4", "start_date": "1938-06-10", "station": "subway", "subway": "yes", "wikidata": "Q3296545", "wikipedia": "es:Facultad de Medicina (subte de Buenos Aires)"}}, {"type": "node", "id": 3475502534, "lat": -34.5752014, "lon": -58.4346817, "tags": {"name": "Ministro Carranza", "network": "Subte de Buenos Aires", "operator": "Emova Movilidad S.A.", "platforms": "2", "public_transport": "station", "railway": "station", "railway:position": "7", "start_date": "1987-12-29", "station": "subway", "subway": "yes", "wikidata": "Q3296565", "wikipedia": "es:Ministro Carranza (Subte de Buenos Aires)"}}, {"type": "node", "id": 3475502536, "lat": -34.5784903, "lon": -58.4256173, "tags": {"name": "Palermo", "network": "Subte de Buenos Aires", "operator": "Emova Movilidad S.A.", "public_transport": "station", "railway": "station", "railway:position": "6", "start_date": "1940-02-23", "station": "subway", "subway": "yes", "train": "yes", "wikidata": "Q3296629", "wikipedia": "es:Palermo (Subte de Buenos Aires)"}}, {"type": "node", "id": 3475502538, "lat": -34.5814551, "lon": -58.4211107, "tags": {"name": "Plaza Italia", "network": "Subte de Buenos Aires", "operator": "Emova Movilidad S.A.", "public_transport": "station", "railway": "station", "railway:position": "5.5", "start_date": "1938-12-29", "station": "subway", "subway": "yes", "wheelchair": "no", "wikidata": "Q3296631", "wikimedia_commons": "Category:Plaza Italia (Subte de Buenos Aires)", "wikipedia": "en:Plaza Italia (Buenos Aires Underground)"}}, {"type": "node", "id": 3475502797, "lat": -34.5851659, "lon": -58.4158912, "tags": {"name": "Scalabrini Ortiz", "network": "Subte de Buenos Aires", "old_name": "Canning;2 de Abril", "operator": "Emova Movilidad S.A.", "platforms": "2", "public_transport": "station", "railway": "station", "railway:position": "4.8", "start_date": "1938-12-29", "station": "subway", "subway": "yes", "wheelchair": "no", "wikidata": "Q3296546", "wikipedia": "es:Scalabrini Ortiz (Subte de Buenos Aires)"}}, {"type": "node", "id": 3475502800, "lat": -34.6017243, "lon": -58.3852237, "tags": {"name": "Tribunales - Teatro Col\u00f3n", "network": "Subte de Buenos Aires", "operator": "Emova Movilidad S.A.", "public_transport": "station", "railway": "station", "railway:position": "1.5", "start_date": "1937-06-03", "station": "subway", "subway": "yes", "train": "yes", "wheelchair": "yes", "wikidata": "Q3296608", "wikipedia": "es:Tribunales (subte de Buenos Aires)"}}, {"type": "node", "id": 3475502801, "lat": -34.6044292, "lon": -58.3802644, "tags": {"name": "9 de Julio", "network": "Subte de Buenos Aires", "old_name": "Carlos Pellegrini;Eva Per\u00f3n", "operator": "Emova Movilidad S.A.", "platforms": "2", "public_transport": "station", "railway": "station", "railway:position": "0.7", "start_date": "1937-06-03", "station": "subway", "subway": "yes", "wikidata": "Q4646451", "wikipedia": "es:9 de Julio (Subte de Buenos Aires)"}}, {"type": "node", "id": 3475506076, "lat": -34.5558009, "lon": -58.4622186, "tags": {"name": "Congreso de Tucum\u00e1n", "network": "Subte de Buenos Aires", "operator": "Emova Movilidad S.A.", "public_transport": "station", "railway": "station", "railway:position": "10.3", "start_date": "2000-04-27", "station": "subway", "subway": "yes", "train": "yes", "wikidata": "Q3296559", "wikipedia": "es:Congreso de Tucum\u00e1n (Subte de Buenos Aires)"}}, {"type": "node", "id": 3475506077, "lat": -34.566256, "lon": -58.4520698, "tags": {"name": "Jos\u00e9 Hern\u00e1ndez", "network": "Subte de Buenos Aires", "operator": "Emova Movilidad S.A.", "public_transport": "station", "railway": "station", "railway:position": "8.8", "start_date": "1997-11-13", "station": "subway", "subway": "yes", "wheelchair": "yes", "wikidata": "Q3296708", "wikipedia": "es:Jos\u00e9 Hern\u00e1ndez (Subte de Buenos Aires)"}}, {"type": "node", "id": 3905676972, "lat": -34.6041224, "lon": -58.4053431, "tags": {"name": "Corrientes", "network": "Subte de Buenos Aires", "operator": "Emova Movilidad S.A.", "platforms": "2", "public_transport": "station", "railway": "station", "railway:position": "2.8", "start_date": "2010-12-06", "station": "subway", "subway": "yes", "wikidata": "Q5172974"}}, {"type": "node", "id": 3905676973, "lat": -34.5991974, "lon": -58.4039401, "tags": {"name": "C\u00f3rdoba", "network": "Subte de Buenos Aires", "operator": "Emova Movilidad S.A.", "platforms": "2", "public_transport": "station", "railway": "station", "railway:position": "2.1", "start_date": "2015-12-18", "station": "subway", "subway": "yes", "wikidata": "Q5796926", "wikipedia": "es:C\u00f3rdoba (Subte de Buenos Aires)"}}, {"type": "node", "id": 3905676975, "lat": -34.6091557, "lon": -58.4060183, "tags": {"name": "Once - 30 de Diciembre", "name:etymology:wikidata": "Q800594;Q1786733", "network": "Subte de Buenos Aires", "old_name": "Once", "operator": "Emova Movilidad S.A.", "platforms": "2", "public_transport": "station", "railway": "station", "railway:position": "3.5", "start_date": "2007-10-18", "station": "subway", "subway": "yes", "wheelchair": "yes", "wikidata": "Q871946", "wikipedia": "es:Once-30 de Diciembre (subte de Buenos Aires)"}}, {"type": "node", "id": 3962440379, "lat": -34.6354349, "lon": -58.3990398, "tags": {"name": "Caseros", "network": "Subte de Buenos Aires", "operator": "Emova Movilidad S.A.", "platforms": "2", "public_transport": "station", "railway": "station", "railway:position": "6.4", "start_date": "2007-10-18", "station": "subway", "subway": "yes", "wheelchair": "yes", "wikidata": "Q5048425", "wikipedia": "es:Caseros (Subte de Buenos Aires)"}}, {"type": "node", "id": 3962440380, "lat": -34.6416988, "lon": -58.4126594, "tags": {"name": "Hospitales", "network": "Subte de Buenos Aires", "operator": "Emova Movilidad S.A.", "platforms": "2", "public_transport": "station", "railway": "station", "railway:position": "7.8", "start_date": "2013-05-27", "station": "subway", "subway": "yes", "wikidata": "Q5488820", "wikipedia": "es:Hospitales (Subte de Buenos Aires)"}}, {"type": "node", "id": 3962440381, "lat": -34.6230697, "lon": -58.4023299, "tags": {"name": "Humberto I", "network": "Subte de Buenos Aires", "operator": "Emova Movilidad S.A.", "platforms": "2", "public_transport": "station", "railway": "station", "railway:position": "4.9", "start_date": "2007-10-18", "station": "subway", "subway": "yes", "wheelchair": "yes", "wikidata": "Q8876899", "wikipedia": "es:Humberto I (subte de Buenos Aires)"}}, {"type": "node", "id": 3962440382, "lat": -34.6293073, "lon": -58.4010012, "tags": {"name": "Incl\u00e1n-Mezquita Al Ahmad", "network": "Subte de Buenos Aires", "old_name": "Incl\u00e1n", "operator": "Emova Movilidad S.A.", "platforms": "2", "public_transport": "station", "railway": "station", "railway:position": "5.6", "start_date": "2007-10-18", "station": "subway", "subway": "yes", "wheelchair": "yes", "wikidata": "Q5549804", "wikipedia": "es:Incl\u00e1n-Mezquita Al Ahmad (subte de Buenos Aires)"}}, {"type": "node", "id": 3962440383, "lat": -34.6384945, "lon": -58.4063149, "tags": {"name": "Parque Patricios", "network": "Subte de Buenos Aires", "operator": "Emova Movilidad S.A.", "platforms": "2", "public_transport": "station", "railway": "station", "railway:position": "7", "start_date": "2011-10-04", "station": "subway", "subway": "yes", "wikidata": "Q8875911", "wikipedia": "es:Parque Patricios (Subte de Buenos Aires)"}}, {"type": "node", "id": 3962443157, "lat": -34.6152097, "lon": -58.404737, "tags": {"name": "Venezuela", "network": "Subte de Buenos Aires", "operator": "Emova Movilidad S.A.", "platforms": "2", "public_transport": "station", "railway": "station", "railway:position": "4", "start_date": "2007-10-18", "station": "subway", "subway": "yes", "wheelchair": "yes", "wikidata": "Q8875751", "wikipedia": "es:Venezuela (subte de Buenos Aires)"}}, {"type": "node", "id": 4308386687, "lat": -34.5947089, "lon": -58.4024287, "tags": {"name": "Santa Fe - Carlos J\u00e1uregui", "network": "Subte de Buenos Aires", "operator": "Emova Movilidad S.A.", "platforms": "2", "public_transport": "station", "railway": "station", "railway:position": "1.6", "start_date": "2016-07", "station": "subway", "subway": "yes", "wikidata": "Q8880874", "wikipedia": "es:Santa Fe - Carlos J\u00e1uregui (Subte de Buenos Aires)"}}, {"type": "node", "id": 4395753107, "lat": -34.6083827, "lon": -58.4070147, "tags": {"internet_access": "wlan", "internet_access:fee": "no", "name": "Once de Septiembre", "name:etymology:wikidata": "Q9068534", "network": "Sarmiento", "operator": "Trenes Argentinos", "platforms": "5", "public_transport": "station", "railway": "station", "railway:position": "0", "short_name": "Once", "start_date": "1882-12-20", "wikidata": "Q800594", "wikipedia": "es:Estaci\u00f3n Once de Septiembre"}}, {"type": "node", "id": 4407302011, "lat": -34.6033487, "lon": -58.3745624, "tags": {"name": "Florida", "network": "Subte de Buenos Aires", "operator": "Emova Movilidad S.A.", "platforms": "1", "public_transport": "station", "railway": "station", "railway:position": "0.5", "start_date": "1931-12-01", "station": "subway", "subway": "yes", "wikidata": "Q3295272", "wikipedia": "es:Florida (subte de Buenos Aires)"}}, {"type": "node", "id": 4593842000, "lat": -34.537553, "lon": -58.4779427, "tags": {"name": "Arist\u00f3bulo del Valle", "network": "Belgrano Norte", "operator": "Ferrov\u00edas", "public_transport": "station", "railway": "station", "train": "yes", "wikidata": "Q5649973", "wikipedia": "es:Estaci\u00f3n Arist\u00f3bulo del Valle"}}, {"type": "node", "id": 4601987135, "lat": -34.5875522, "lon": -58.3972196, "tags": {"name": "Las Heras", "network": "Subte de Buenos Aires", "operator": "Emova Movilidad S.A.", "platforms": "2", "public_transport": "station", "railway": "station", "railway:position": "0.6", "start_date": "2015-12-18", "station": "subway", "subway": "yes", "wheelchair": "yes", "wikidata": "Q5843740", "wikipedia": "es:Las Heras (Subte de Buenos Aires)"}}, {"type": "node", "id": 4603095547, "lat": -34.6223517, "lon": -58.3852048, "tags": {"name": "San Jos\u00e9", "network": "Subte de Buenos Aires", "operator": "Emova Movilidad S.A.", "platforms": "2", "public_transport": "station", "railway": "station", "railway:position": "4.3", "start_date": "1966-04-24", "station": "subway", "subway": "yes", "wikidata": "Q3296640", "wikipedia": "es:San Jos\u00e9 (Subte de Buenos Aires)"}}, {"type": "node", "id": 4706146861, "lat": -34.6227394, "lon": -58.3914497, "tags": {"name": "Entre R\u00edos - Rodolfo Walsh", "network": "Subte de Buenos Aires", "old_name": "Entre R\u00edos", "operator": "Emova Movilidad S.A.", "platforms": "2", "public_transport": "station", "railway": "station", "railway:position": "4.9", "start_date": "1944-06-20", "station": "subway", "train": "yes", "wikidata": "Q3296635", "wikipedia": "es:Entre R\u00edos - Rodolfo Walsh (Subte de Buenos Aires)"}}, {"type": "node", "id": 4723478047, "lat": -34.5917642, "lon": -58.4474918, "tags": {"name": "Dorrego", "network": "Subte de Buenos Aires", "operator": "Emova Movilidad S.A.", "platforms": "2", "public_transport": "station", "railway": "station", "railway:position": "7,6", "start_date": "1930-10-17", "station": "subway", "subway": "yes", "wheelchair": "no", "wikidata": "Q3296107", "wikipedia": "es:Dorrego (Subte de Buenos Aires)"}}, {"type": "node", "id": 4742293526, "lat": -34.5867518, "lon": -58.4554902, "tags": {"name": "Federico Lacroze", "network": "Urquiza", "operator": "Metrov\u00edas", "public_transport": "station", "railway": "station", "start_date": "1957", "train": "yes", "wikidata": "Q800593", "wikipedia": "es:Estaci\u00f3n Federico Lacroze"}}, {"type": "node", "id": 4812753920, "lat": -34.5871827, "lon": -58.4551513, "tags": {"name": "Federico Lacroze", "network": "Subte de Buenos Aires", "old_name": "Chacarita", "operator": "Emova Movilidad S.A.", "platforms": "2", "public_transport": "station", "railway": "station", "railway:position": "8.4", "start_date": "1930-10-17", "station": "subway", "subway": "yes", "wikidata": "Q3067921", "wikipedia": "es:Federico Lacroze (Subte de Buenos Aires)"}}, {"type": "node", "id": 4826398079, "lat": -34.584083, "lon": -58.4663718, "tags": {"name": "Tronador - Villa Ort\u00fazar", "network": "Subte de Buenos Aires", "operator": "Emova Movilidad S.A.", "public_transport": "station", "railway": "station", "railway:position": "9.3", "short_name": "Tronador - Va. Ort\u00fazar", "start_date": "2003-08-09", "station": "subway", "toilets": "yes", "train": "yes", "wikidata": "Q5244836", "wikipedia": "es:Tronador-Villa Ort\u00fazar (subte de Buenos Aires)"}}, {"type": "node", "id": 4829965194, "lat": -34.604451, "lon": -58.3927552, "tags": {"name": "Callao (B)", "network": "Subte de Buenos Aires", "official_name": "Callao - Maestro Alfredo Bravo", "operator": "Emova Movilidad S.A.", "platforms": "2", "public_transport": "station", "railway": "station", "railway:position": "2", "start_date": "1930-10-17", "station": "subway", "wikidata": "Q5021782", "wikipedia": "es:Callao - Maestro Alfredo Bravo (l\u00ednea B del subte de Buenos Aires)"}}, {"type": "node", "id": 4865564991, "lat": -34.5812088, "lon": -58.4743442, "tags": {"name": "Los Incas - Parque Chas", "network": "Subte de Buenos Aires", "old_name": "Los Incas", "operator": "Emova Movilidad S.A.", "public_transport": "station", "railway": "station", "railway:position": "10.4", "short_name": "Los Incas - Pque. Chas", "start_date": "2003-08-09", "station": "subway", "subway": "yes", "wheelchair": "yes", "wikidata": "Q3098774"}}, {"type": "node", "id": 4868679923, "lat": -34.604043, "lon": -58.3870845, "tags": {"name": "Uruguay", "network": "Subte de Buenos Aires", "operator": "Emova Movilidad S.A.", "platforms": "2", "public_transport": "station", "railway": "station", "railway:position": "1.6", "start_date": "1931-06-22", "station": "subway", "subway": "yes", "wheelchair": "yes", "wikidata": "Q3296159", "wikipedia": "es:Uruguay (subte de Buenos Aires)"}}, {"type": "node", "id": 4871207944, "lat": -34.5990344, "lon": -58.4396927, "tags": {"name": "Malabia - Osvaldo Pugliese", "network": "Subte de Buenos Aires", "old_name": "Canning;Malabia", "operator": "Emova Movilidad S.A.", "platforms": "2", "public_transport": "station", "railway": "station", "railway:position": "6.4", "short_name": "Malabia", "start_date": "1930-10-17", "station": "subway", "subway": "yes", "wikidata": "Q5244756", "wikipedia": "es:Malabia - Osvaldo Pugliese (Subte de Buenos Aires)"}}, {"type": "node", "id": 5042032828, "lat": -34.5779686, "lon": -58.4807356, "tags": {"name": "Echeverr\u00eda", "network": "Subte de Buenos Aires", "operator": "Emova Movilidad S.A.", "platforms": "2", "public_transport": "station", "railway": "station", "railway:position": "11.1", "start_date": "2013-07-26", "station": "subway", "subway": "yes", "train": "yes", "wikidata": "Q5244687", "wikipedia": "es:Echeverr\u00eda (Subte de Buenos Aires)"}}, {"type": "node", "id": 5072732883, "lat": -34.5893952, "lon": -58.373183, "tags": {"name": "Retiro (San Mart\u00edn)", "network": "San Mart\u00edn", "operator": "Trenes Argentinos", "public_transport": "station", "railway": "station", "train": "yes", "wikidata": "Q5844508", "wikipedia": "es:Estaci\u00f3n Retiro San Mart\u00edn"}}, {"type": "node", "id": 5120199581, "lat": -34.5902122, "lon": -58.3739179, "tags": {"addr:housenumber": "1430", "addr:street": "Avenida Doctor Jos\u00e9 Mar\u00eda Ramos Mej\u00eda", "architect": "Louis Faure-Dujarric", "name": "Retiro (Belgrano)", "network": "Belgrano", "operator": "Ferrov\u00edas", "public_transport": "station", "railway": "station", "railway:position": "0", "start_date": "1914", "train": "yes", "wikidata": "Q5844505", "wikipedia": "es:Estaci\u00f3n Retiro Belgrano"}}, {"type": "node", "id": 5171746559, "lat": -34.6282576, "lon": -58.3805698, "tags": {"addr:city": "Ciudad Aut\u00f3noma de Buenos Aires", "addr:housenumber": "1128", "addr:postcode": "C1138", "addr:street": "Avenida Brasil", "name": "Plaza Constituci\u00f3n", "network": "Roca", "not:network:wikidata": "Q2962337", "operator": "Trenes Argentinos", "platforms": "14", "public_transport": "station", "railway": "station", "short_name": "Constituci\u00f3n", "start_date": "1865-08-14", "train": "yes", "wikidata": "Q800596", "wikipedia": "es:Estaci\u00f3n Constituci\u00f3n"}}, {"type": "node", "id": 5206871927, "lat": -34.6097193, "lon": -58.374119, "tags": {"name": "Bol\u00edvar", "network": "Subte de Buenos Aires", "operator": "Emova Movilidad S.A.", "public_transport": "station", "railway": "station", "railway:position": "2.3", "start_date": "1966-04-24", "station": "subway", "subway": "yes", "train": "yes", "wheelchair": "yes", "wikidata": "Q586432", "wikipedia": "es:Bol\u00edvar (subte de Buenos Aires)"}}, {"type": "node", "id": 5206871928, "lat": -34.612958, "lon": -58.3776468, "tags": {"name": "Belgrano", "network": "Subte de Buenos Aires", "operator": "Emova Movilidad S.A.", "platforms": "2", "public_transport": "station", "railway": "station", "railway:position": "2.9", "start_date": "1966-04-24", "station": "subway", "subway": "yes", "wikidata": "Q3296660", "wikipedia": "es:Belgrano (Subte de Buenos Aires)"}}, {"type": "node", "id": 5267306822, "lat": -34.6036824, "lon": -58.3812708, "tags": {"name": "Carlos Pellegrini", "name:fr": "Carlos Pelegrini (B)", "network": "Subte de Buenos Aires", "operator": "Emova Movilidad S.A.", "public_transport": "station", "railway": "station", "railway:position": "1", "start_date": "1931-06-22", "station": "subway", "subway": "yes", "wikidata": "Q3294899", "wikipedia": "es:Carlos Pellegrini (Subte de Buenos Aires)"}}, {"type": "node", "id": 5267306824, "lat": -34.6029951, "lon": -58.3696343, "tags": {"name": "Leandro N. Alem", "network": "Subte de Buenos Aires", "operator": "Emova Movilidad S.A.", "public_transport": "station", "railway": "station", "railway:position": "0", "start_date": "1931-12-01", "station": "subway", "subway": "yes", "wikidata": "Q3295076", "wikipedia": "es:Leandro N. Alem (subte de Buenos Aires)"}}, {"type": "node", "id": 5271314475, "lat": -34.5739773, "lon": -58.4868061, "tags": {"name": "Juan Manuel de Rosas", "network": "Subte de Buenos Aires", "operator": "Emova Movilidad S.A.", "public_transport": "station", "railway": "station", "railway:position": "11.9", "short_name": "Rosas", "start_date": "2013-07-26", "station": "subway", "subway": "yes", "wikidata": "Q5841304", "wikipedia": "es:Juan Manuel de Rosas (subte de Buenos Aires)"}}, {"type": "node", "id": 5271314476, "lat": -34.6021406, "lon": -58.4313892, "tags": {"name": "\u00c1ngel Gallardo", "network": "Subte de Buenos Aires", "old_name": "R\u00edo de Janeiro", "operator": "Emova Movilidad S.A.", "platforms": "2", "public_transport": "station", "railway": "station", "railway:position": "5.6", "start_date": "1930-10-17", "station": "subway", "subway": "yes", "wikidata": "Q3295996", "wikipedia": "es:\u00c1ngel Gallardo (Subte de Buenos Aires)"}}, {"type": "node", "id": 5271314477, "lat": -34.6032012, "lon": -58.4208126, "tags": {"name": "Medrano - Almagro", "network": "Subte de Buenos Aires", "old_name": "Medrano", "operator": "Emova Movilidad S.A.", "platforms": "2", "public_transport": "station", "railway": "station", "railway:position": "4.7", "start_date": "1930-10-17", "station": "subway", "subway": "yes", "wikidata": "Q3296001"}}, {"type": "node", "id": 5271314478, "lat": -34.6040822, "lon": -58.4113533, "tags": {"name": "Carlos Gardel", "network": "Subte de Buenos Aires", "old_name": "Ag\u00fcero", "operator": "Emova Movilidad S.A.", "platforms": "2", "public_transport": "station", "railway": "station", "railway:position": "3.8", "start_date": "1930-10-17", "station": "subway", "subway": "yes", "wikidata": "Q3296188", "wikipedia": "es:Carlos Gardel (Subte de Buenos Aires)"}}, {"type": "node", "id": 5271314479, "lat": -34.6045673, "lon": -58.4054021, "tags": {"name": "Pueyrred\u00f3n (B)", "network": "Subte de Buenos Aires", "operator": "Emova Movilidad S.A.", "platforms": "2", "public_transport": "station", "railway": "station", "railway:position": "3.2", "start_date": "1931-06-22", "station": "subway", "subway": "yes", "wheelchair": "no", "wikidata": "Q7258854", "wikipedia": "es:Pueyrred\u00f3n (l\u00ednea B del Subte de Buenos Aires)"}}, {"type": "node", "id": 5271314480, "lat": -34.6046438, "lon": -58.3994148, "tags": {"name": "Pasteur - AMIA", "name:etymology:wikidata": "Q2867880", "network": "Subte de Buenos Aires", "old_name": "Pasteur", "operator": "Emova Movilidad S.A.", "platforms": "2", "public_transport": "station", "railway": "station", "railway:position": "2.7", "start_date": "1930-10-17", "station": "subway", "subway": "yes", "wikidata": "Q3295552", "wikipedia": "es:Pasteur - AMIA (Subte de Buenos Aires)"}}, {"type": "node", "id": 5272710058, "lat": -34.6119847, "lon": -58.380593}, {"type": "node", "id": 5272710059, "lat": -34.6129511, "lon": -58.3804575}, {"type": "node", "id": 5272710060, "lat": -34.6129524, "lon": -58.3805551}, {"type": "node", "id": 5272710061, "lat": -34.6119834, "lon": -58.3805013}, {"type": "node", "id": 5272710067, "lat": -34.5913025, "lon": -58.3741803, "tags": {"name": "Retiro (C)", "network": "Subte de Buenos Aires", "operator": "Emova Movilidad S.A.", "public_transport": "station", "railway": "station", "railway:position": "0", "start_date": "1936-02-06", "station": "subway", "subway": "yes", "wikidata": "Q5244852", "wikipedia": "es:Retiro (l\u00ednea C del subte de Buenos Aires)"}}, {"type": "node", "id": 5272846982, "lat": -34.5917097, "lon": -58.4070715, "tags": {"name": "Ag\u00fcero", "network": "Subte de Buenos Aires", "operator": "Emova Movilidad S.A.", "platforms": "2", "public_transport": "station", "railway": "station", "railway:position": "3.8", "start_date": "1938-09-05", "station": "subway", "subway": "yes", "wikidata": "Q3296607", "wikipedia": "es:Ag\u00fcero (Subte de Buenos Aires)"}}, {"type": "node", "id": 5272972076, "lat": -34.5624355, "lon": -58.4563786, "tags": {"name": "Juramento", "network": "Subte de Buenos Aires", "operator": "Emova Movilidad S.A.", "platforms": "2", "public_transport": "station", "railway": "station", "railway:position": "9.4", "start_date": "1999-06-21", "station": "subway", "subway": "yes", "wheelchair": "yes", "wikidata": "Q3296554", "wikipedia": "es:Juramento (Subte de Buenos Aires)"}}, {"type": "node", "id": 5272972081, "lat": -34.5702528, "lon": -58.4443609, "tags": {"name": "Olleros", "network": "Subte de Buenos Aires", "operator": "Emova Movilidad S.A.", "platforms": "2", "public_transport": "station", "railway": "station", "railway:position": "8", "start_date": "1997-05-31", "station": "subway", "subway": "yes", "wheelchair": "yes", "wikidata": "Q3296710", "wikipedia": "es:Olleros (Subte de Buenos Aires)"}}, {"type": "node", "id": 5278916451, "lat": -34.6238418, "lon": -58.4027603, "tags": {"name": "Jujuy", "network": "Subte de Buenos Aires", "operator": "Emova Movilidad S.A.", "platforms": "2", "public_transport": "station", "railway": "station", "railway:position": "5.9", "start_date": "1944-06-20", "station": "subway", "subway": "yes", "wikidata": "Q3098742", "wikipedia": "es:Jujuy (subte de Buenos Aires)"}}, {"type": "node", "id": 5278916461, "lat": -34.6232137, "lon": -58.3975718, "tags": {"name": "Pichincha", "network": "Subte de Buenos Aires", "operator": "Emova Movilidad S.A.", "platforms": "2", "public_transport": "station", "railway": "station", "railway:position": "5.4", "start_date": "1944-06-20", "station": "subway", "subway": "yes", "wikidata": "Q969818", "wikipedia": "es:Pichincha (Subte de Buenos Aires)"}}, {"type": "node", "id": 5278923154, "lat": -34.6246886, "lon": -58.4097487, "tags": {"name": "General Urquiza", "network": "Subte de Buenos Aires", "operator": "Emova Movilidad S.A.", "platforms": "2", "public_transport": "station", "railway": "station", "railway:position": "6.5", "short_name": "General Urquiza", "start_date": "1944-06-20", "station": "subway", "subway": "yes", "wikidata": "Q3296723", "wikipedia": "es:General Urquiza (subte de Buenos Aires)"}}, {"type": "node", "id": 5281196398, "lat": -34.6429239, "lon": -58.461676, "tags": {"name": "Plaza de los Virreyes - Eva Per\u00f3n", "network": "Subte de Buenos Aires", "old_name": "Plaza de los Virreyes", "operator": "Emova Movilidad S.A.", "public_transport": "station", "railway": "station", "railway:position": "12", "start_date": "1986-05-08", "station": "subway", "subway": "yes", "wikidata": "Q3297032", "wikipedia": "es:Plaza de los Virreyes - Eva Per\u00f3n (Subte de Buenos Aires)"}}, {"type": "node", "id": 5281196403, "lat": -34.6398165, "lon": -58.4580134, "tags": {"name": "Varela", "network": "Subte de Buenos Aires", "operator": "Emova Movilidad S.A.", "platforms": "2", "public_transport": "station", "railway": "station", "railway:position": "11.1", "start_date": "1985-10-31", "station": "subway", "subway": "yes", "wikidata": "Q3296869", "wikipedia": "es:Varela (Subte de Buenos Aires)"}}, {"type": "node", "id": 5281196408, "lat": -34.6363065, "lon": -58.4501913, "tags": {"name": "Medalla Milagrosa", "network": "Subte de Buenos Aires", "operator": "Emova Movilidad S.A.", "platforms": "2", "public_transport": "station", "railway": "station", "railway:position": "10.5", "start_date": "1985-11-27", "station": "subway", "subway": "yes", "wikidata": "Q2839438", "wikipedia": "es:Medalla Milagrosa (Subte de Buenos Aires)"}}, {"type": "node", "id": 5281196417, "lat": -34.6314574, "lon": -58.4423592, "tags": {"name": "Emilio Mitre", "network": "Subte de Buenos Aires", "operator": "Emova Movilidad S.A.", "platforms": "2", "public_transport": "station", "railway": "station", "railway:position": "9.5", "start_date": "1985-10-07", "station": "subway", "subway": "yes", "wikidata": "Q3297031", "wikipedia": "es:Emilio Mitre (subte de Buenos Aires)"}}, {"type": "node", "id": 5281196822, "lat": -34.6280256, "lon": -58.4338861, "tags": {"name": "Jos\u00e9 Mar\u00eda Moreno", "network": "Subte de Buenos Aires", "operator": "Emova Movilidad S.A.", "platforms": "2", "public_transport": "station", "railway": "station", "railway:position": "8.8", "start_date": "1973-06-23", "station": "subway", "subway": "yes", "wikidata": "Q3296864", "wikipedia": "es:Jos\u00e9 Mar\u00eda Moreno (subte de Buenos Aires)"}}, {"type": "node", "id": 5624730306, "lat": -34.5830687, "lon": -58.3910479, "tags": {"name": "Facultad de Derecho - Julieta Lanteri", "network": "Subte de Buenos Aires", "operator": "Emova Movilidad S.A.", "platforms": "2", "public_transport": "station", "railway": "station", "railway:position": "0.6", "start_date": "2018-05-17", "station": "subway", "subway": "yes", "wikidata": "Q6079537", "wikipedia": "es:Facultad de Derecho (subte de Buenos Aires)"}}, {"type": "node", "id": 6460878103, "lat": -34.5583619, "lon": -58.4499809}, {"type": "node", "id": 6460878104, "lat": -34.5582372, "lon": -58.449875}, {"type": "node", "id": 6460878105, "lat": -34.5593698, "lon": -58.4479064}, {"type": "node", "id": 6460878106, "lat": -34.5594945, "lon": -58.4480123}, {"type": "node", "id": 6517436882, "lat": -34.6037, "lon": -58.3702237, "tags": {"name": "Correo Central", "network": "Subte de Buenos Aires", "operator": "Emova Movilidad S.A.", "public_transport": "station", "railway": "station", "railway:position": "1.5", "start_date": "2019-06-03", "station": "subway", "subway": "yes", "wikidata": "Q3296867", "wikipedia": "es:Correo Central (subte de Buenos Aires)"}}, {"type": "node", "id": 7050854412, "lat": -34.5588818, "lon": -58.4490787}, {"type": "node", "id": 7050854415, "lat": -34.5589504, "lon": -58.4489588}, {"type": "node", "id": 7684209870, "lat": -34.5949245, "lon": -58.4031408, "tags": {"name": "Pueyrred\u00f3n (D)", "network": "Subte de Buenos Aires", "operator": "Emova Movilidad S.A.", "public_transport": "station", "railway": "station", "railway:position": "3.2", "start_date": "1938-09-05", "station": "subway", "subway": "yes", "train": "yes", "wikidata": "Q3296551", "wikipedia": "es:Pueyrred\u00f3n (l\u00ednea D del Subte de Buenos Aires)"}}, {"type": "node", "id": 10848111734, "lat": -34.5586274, "lon": -58.4495199}, {"type": "node", "id": 10848111737, "lat": -34.5585137, "lon": -58.4497173}, {"type": "node", "id": 10848111738, "lat": -34.5593327, "lon": -58.4482949}, {"type": "node", "id": 10848111741, "lat": -34.5592519, "lon": -58.4484352}, {"type": "node", "id": 10852832655, "lat": -34.5585716, "lon": -58.4496165, "tags": {"level": "0", "railway": "train_station_entrance"}}, {"type": "node", "id": 10867732112, "lat": -34.5592897, "lon": -58.4483693, "tags": {"level": "0", "railway": "train_station_entrance"}}, {"type": "node", "id": 11045597091, "lat": -34.5910929, "lon": -58.3747822, "tags": {"addr:city": "Ciudad Aut\u00f3noma de Buenos Aires", "addr:housenumber": "1358", "addr:postcode": "1104", "addr:street": "Avenida Doctor Jos\u00e9 Mar\u00eda Ramos Mej\u00eda", "internet_access": "wlan", "name": "Retiro", "network": "Mitre", "network:wikidata": "Q3239158", "operator": "Trenes Argentinos Operadora Ferroviaria", "operator:wikidata": "Q6116255", "public_transport": "station", "railway": "station", "start_date": "1915", "train": "yes"}}, {"type": "node", "id": 11134608453, "lat": -34.5582642, "lon": -58.4498979}, {"type": "node", "id": 11134608454, "lat": -34.5583405, "lon": -58.4499627}, {"type": "node", "id": 11134608470, "lat": -34.5593949, "lon": -58.4479277}, {"type": "node", "id": 11134608471, "lat": -34.5594745, "lon": -58.4479953}, {"type": "way", "id": 147948780, "nodes": [310290319, 1637245196, 310290322, 3181753732, 1610665346, 3051299600, 1610665341, 1610665344, 1628545040, 310290319], "tags": {"building": "train_station", "building:levels": "5", "name": "Retiro (Mitre)", "network": "Mitre", "network:wikidata": "Q3239158", "operator": "Trenes Argentinos Operadora Ferroviaria", "operator:wikidata": "Q6116255", "public_transport": "station", "railway": "station", "train": "yes", "wikidata": "Q5410626", "wikipedia": "es:Estaci\u00f3n Retiro Mitre"}}, {"type": "way", "id": 440129374, "nodes": [5272710058, 5272710061, 5272710059, 5272710060, 5272710058], "tags": {"covered": "yes", "name": "Moreno", "network": "Subte de Buenos Aires", "operator": "Emova Movilidad S.A.", "platforms": "2", "public_transport": "station", "railway": "station", "railway:position": "2.6", "start_date": "1934-11-09", "station": "subway", "subway": "yes", "tunnel": "yes", "wikidata": "Q3296606", "wikipedia": "es:Moreno (Subte de Buenos Aires)"}}, {"type": "way", "id": 688813356, "nodes": [6460878106, 11134608471, 11134608470, 6460878105, 6460878104, 11134608453, 11134608454, 6460878103, 10848111737, 10852832655, 10848111734, 7050854412, 7050854415, 10848111741, 10867732112, 10848111738, 6460878106], "tags": {"building": "train_station", "building:levels": "3", "name": "Belgrano C", "network": "Mitre", "network:wikidata": "Q3239158", "operator": "Trenes Argentinos Operadora Ferroviaria", "operator:wikidata": "Q6116255", "platforms": "2", "public_transport": "station", "railway": "station", "railway:position": "8", "roof:colour": "grey", "roof:material": "metal", "roof:orientation": "along", "roof:shape": "round", "start_date": "1862", "train": "yes", "wheelchair": "yes", "wikidata": "Q5841090", "wikipedia": "es:Estaci\u00f3n Belgrano C"}}]}